[
  {
    "name": "Bavoryně",
    "lat": "49.8957",
    "lon": "13.9609"
  },
  {
    "name": "Barchovice",
    "lat": "49.9443",
    "lon": "14.9684"
  },
  {
    "name": "Bakov nad Jizerou",
    "lat": "50.4801",
    "lon": "14.9388"
  },
  {
    "name": "Babice",
    "lat": "49.1242",
    "lon": "15.7689"
  },
  {
    "name": "Bašť",
    "lat": "50.2049",
    "lon": "14.4771"
  },
  {
    "name": "Babice",
    "lat": "49.1242",
    "lon": "15.7689"
  },
  {
    "name": "Bavorov",
    "lat": "49.1215",
    "lon": "14.0786"
  },
  {
    "name": "Balkova Lhota",
    "lat": "49.4520",
    "lon": "14.6082"
  },
  {
    "name": "Babylon",
    "lat": "49.3975",
    "lon": "12.8617"
  },
  {
    "name": "Bačkov",
    "lat": "49.7329",
    "lon": "15.4591"
  },
  {
    "name": "Bartoušov",
    "lat": "49.5811",
    "lon": "15.6469"
  },
  {
    "name": "Babice",
    "lat": "49.1242",
    "lon": "15.7689"
  },
  {
    "name": "Barchov",
    "lat": "50.1976",
    "lon": "15.5672"
  },
  {
    "name": "Bačalky",
    "lat": "50.3849",
    "lon": "15.1534"
  },
  {
    "name": "Bašnice",
    "lat": "50.3345",
    "lon": "15.6050"
  },
  {
    "name": "Barchov",
    "lat": "50.1976",
    "lon": "15.5672"
  },
  {
    "name": "Bačetín",
    "lat": "50.3001",
    "lon": "16.2345"
  },
  {
    "name": "Bartošovice v Orlických horách",
    "lat": "50.1640",
    "lon": "16.5478"
  },
  {
    "name": "Banín",
    "lat": "49.6656",
    "lon": "16.4619"
  },
  {
    "name": "Batňovice",
    "lat": "50.5176",
    "lon": "16.0366"
  },
  {
    "name": "Babice nad Svitavou",
    "lat": "49.2833",
    "lon": "16.6961"
  },
  {
    "name": "Babice u Rosic",
    "lat": "49.1730",
    "lon": "16.3582"
  },
  {
    "name": "Bavory",
    "lat": "48.8348",
    "lon": "16.6224"
  },
  {
    "name": "Batelov",
    "lat": "49.3128",
    "lon": "15.3947"
  },
  {
    "name": "Bařice-Velké Těšany",
    "lat": "49.2448",
    "lon": "17.4097"
  },
  {
    "name": "Babice",
    "lat": "49.1242",
    "lon": "15.7689"
  },
  {
    "name": "Bačice",
    "lat": "49.0839",
    "lon": "16.0275"
  },
  {
    "name": "Bačkovice",
    "lat": "48.9678",
    "lon": "15.5888"
  },
  {
    "name": "Babice",
    "lat": "49.1242",
    "lon": "15.7689"
  },
  {
    "name": "Bantice",
    "lat": "48.8831",
    "lon": "16.1824"
  },
  {
    "name": "Baliny",
    "lat": "49.3355",
    "lon": "15.9566"
  },
  {
    "name": "Baška",
    "lat": "49.6458",
    "lon": "18.3723"
  },
  {
    "name": "Bartošovice",
    "lat": "49.6688",
    "lon": "18.0546"
  },
  {
    "name": "Babice",
    "lat": "49.1242",
    "lon": "15.7689"
  }
]