[
  {
    "name": "Dymokury",
    "lat": "50.2476",
    "lon": "15.2041"
  },
  {
    "name": "Dynín",
    "lat": "49.1372",
    "lon": "14.6312"
  },
  {
    "name": "Dyjice",
    "lat": "49.1746",
    "lon": "15.4939"
  },
  {
    "name": "Dyjákovice",
    "lat": "48.7721",
    "lon": "16.3012"
  },
  {
    "name": "Dyjákovičky",
    "lat": "48.7823",
    "lon": "16.0956"
  },
  {
    "name": "Dyje",
    "lat": "48.8470",
    "lon": "16.1168"
  }
]