[
  {
    "name": "Dívčice",
    "lat": 49.1096,
    "lon": 14.3083
  },
  {
    "name": "Dívčí Kopy",
    "lat": 49.2603,
    "lon": 15.0459
  },
  {
    "name": "Dírná",
    "lat": 49.2429,
    "lon": 14.8448
  },
  {
    "name": "Díly",
    "lat": 49.4463,
    "lon": 12.7864
  },
  {
    "name": "Dílce",
    "lat": 50.4672,
    "lon": 15.3593
  },
  {
    "name": "Dívčí Hrad",
    "lat": 50.2438,
    "lon": 17.6341
  }
]