[
  {
    "name": "Děkanovice",
    "lat": "49.6186",
    "lon": "15.1482"
  },
  {
    "name": "Děkov",
    "lat": "50.1712",
    "lon": "13.5544"
  },
  {
    "name": "Děpoltovice",
    "lat": "50.2945",
    "lon": "12.8141"
  },
  {
    "name": "Děčín",
    "lat": "50.7824",
    "lon": "14.2147"
  },
  {
    "name": "Dětřichov",
    "lat": "49.8000",
    "lon": "16.5326"
  },
  {
    "name": "Děčany",
    "lat": "50.4386",
    "lon": "13.9085"
  },
  {
    "name": "Dědová",
    "lat": "49.7611",
    "lon": "15.9865"
  },
  {
    "name": "Dětenice",
    "lat": "50.3681",
    "lon": "15.1702"
  },
  {
    "name": "Dětřichov",
    "lat": "49.8000",
    "lon": "16.5326"
  },
  {
    "name": "Dětřichov u Moravské Třebové",
    "lat": "49.7875",
    "lon": "16.7102"
  },
  {
    "name": "Dětkovice",
    "lat": "49.2727",
    "lon": "17.1442"
  },
  {
    "name": "Dědice",
    "lat": "49.0296",
    "lon": "15.7290"
  },
  {
    "name": "Dětkovice",
    "lat": "49.2727",
    "lon": "17.1442"
  },
  {
    "name": "Dětřichov nad Bystřicí",
    "lat": "49.8322",
    "lon": "17.4014"
  },
  {
    "name": "Dětmarovice",
    "lat": "49.8943",
    "lon": "18.4605"
  },
  {
    "name": "Děhylov",
    "lat": "49.8694",
    "lon": "18.1633"
  }
]