[
  {
    "name": "Frahelž",
    "lat": 49.1172,
    "lon": 14.7318
  },
  {
    "name": "Františkovy Lázně",
    "lat": 50.1224,
    "lon": 12.3489
  },
  {
    "name": "Františkov nad Ploučnicí",
    "lat": 50.7257,
    "lon": 14.3269
  },
  {
    "name": "Frýdštejn",
    "lat": 50.652,
    "lon": 15.1588
  },
  {
    "name": "Frýdlant",
    "lat": 50.9217,
    "lon": 15.0795
  },
  {
    "name": "Fryšták",
    "lat": 49.2852,
    "lon": 17.6835
  },
  {
    "name": "Fryšava pod Žákovou horou",
    "lat": 49.6304,
    "lon": 16.0443
  },
  {
    "name": "Fryčovice",
    "lat": 49.6668,
    "lon": 18.2232
  },
  {
    "name": "Frýdek-Místek",
    "lat": 49.6856,
    "lon": 18.3483
  },
  {
    "name": "Frýdlant nad Ostravicí",
    "lat": 49.5931,
    "lon": 18.3596
  },
  {
    "name": "Frenštát pod Radhoštěm",
    "lat": 49.5474,
    "lon": 18.2117
  },
  {
    "name": "Francova Lhota",
    "lat": 49.2017,
    "lon": 18.1117
  },
  {
    "name": "Frymburk (Český Krumlov)",
    "lat": 48.6609,
    "lon": 14.1656
  },
  {
    "name": "Frymburk (Klatovy)",
    "lat": 49.2496,
    "lon": 13.7073
  }
]