[
  {
    "name": "Heřmaničky",
    "lat": "49.6053",
    "lon": "14.5825"
  },
  {
    "name": "Herink",
    "lat": "49.9671",
    "lon": "14.5752"
  },
  {
    "name": "Heřmaň",
    "lat": "48.9112",
    "lon": "14.5036"
  },
  {
    "name": "Heřmaneč",
    "lat": "49.1296",
    "lon": "15.2844"
  },
  {
    "name": "Heřmaň",
    "lat": "48.9112",
    "lon": "14.5036"
  },
  {
    "name": "Hejná",
    "lat": "49.2894",
    "lon": "13.6747"
  },
  {
    "name": "Heřmanova Huť",
    "lat": "49.7131",
    "lon": "13.0905"
  },
  {
    "name": "Heřmanov",
    "lat": "49.3791",
    "lon": "16.1816"
  },
  {
    "name": "Hejnice",
    "lat": "50.0559",
    "lon": "16.3994"
  },
  {
    "name": "Heřmanice",
    "lat": "49.8239",
    "lon": "15.5472"
  },
  {
    "name": "Herálec",
    "lat": "49.6892",
    "lon": "15.9943"
  },
  {
    "name": "Heřmanice",
    "lat": "49.8239",
    "lon": "15.5472"
  },
  {
    "name": "Heřmanův Městec",
    "lat": "49.9470",
    "lon": "15.6647"
  },
  {
    "name": "Hejtmánkovice",
    "lat": "50.5993",
    "lon": "16.2994"
  },
  {
    "name": "Heřmanice",
    "lat": "49.8239",
    "lon": "15.5472"
  },
  {
    "name": "Heřmánkovice",
    "lat": "50.6199",
    "lon": "16.3239"
  },
  {
    "name": "Hejnice",
    "lat": "50.0559",
    "lon": "16.3994"
  },
  {
    "name": "Helvíkovice",
    "lat": "50.0939",
    "lon": "16.4420"
  },
  {
    "name": "Heroltice",
    "lat": "49.3114",
    "lon": "16.4128"
  },
  {
    "name": "Heraltice",
    "lat": "49.2308",
    "lon": "15.7305"
  },
  {
    "name": "Heršpice",
    "lat": "49.1198",
    "lon": "16.9136"
  },
  {
    "name": "Hevlín",
    "lat": "48.7521",
    "lon": "16.3813"
  },
  {
    "name": "Herálec",
    "lat": "49.6892",
    "lon": "15.9943"
  },
  {
    "name": "Heřmanov",
    "lat": "49.3791",
    "lon": "16.1816"
  },
  {
    "name": "Heřmanovice",
    "lat": "50.1933",
    "lon": "17.3978"
  },
  {
    "name": "Heřmanice u Oder",
    "lat": "49.7137",
    "lon": "17.8053"
  },
  {
    "name": "Heřmánky",
    "lat": "49.7070",
    "lon": "17.7681"
  }
]