[
  {
    "name": "Hnačov",
    "lat": 49.3618,
    "lon": 13.4817
  },
  {
    "name": "Hněvnice",
    "lat": 49.7285,
    "lon": 13.1031
  },
  {
    "name": "Hněvkovice",
    "lat": 49.6832,
    "lon": 15.1996
  },
  {
    "name": "Hněvčeves",
    "lat": 50.3149,
    "lon": 15.7161
  },
  {
    "name": "Hnátnice",
    "lat": 50.0203,
    "lon": 16.4386
  },
  {
    "name": "Hnanice",
    "lat": 48.7985,
    "lon": 15.9867
  },
  {
    "name": "Hnojník",
    "lat": 49.6823,
    "lon": 18.5413
  },
  {
    "name": "Hněvotín",
    "lat": 49.5727,
    "lon": 17.1805
  },
  {
    "name": "Hnojice",
    "lat": 49.7156,
    "lon": 17.2243
  },
  {
    "name": "Hněvošice",
    "lat": 50.0031,
    "lon": 18.0092
  }
]