[
  {
    "name": "Hvězdonice",
    "lat": "49.8728",
    "lon": "14.7773"
  },
  {
    "name": "Hvozdec",
    "lat": "48.9926",
    "lon": "14.6276"
  },
  {
    "name": "Hvozdnice",
    "lat": "50.1913",
    "lon": "15.7112"
  },
  {
    "name": "Hvožďany",
    "lat": "49.5056",
    "lon": "12.7713"
  },
  {
    "name": "Hvozd",
    "lat": "49.9397",
    "lon": "13.2631"
  },
  {
    "name": "Hvozdec",
    "lat": "48.9926",
    "lon": "14.6276"
  },
  {
    "name": "Hvožďany",
    "lat": "49.5056",
    "lon": "12.7713"
  },
  {
    "name": "Hvozd",
    "lat": "49.9397",
    "lon": "13.2631"
  },
  {
    "name": "Hvozdnice",
    "lat": "50.1913",
    "lon": "15.7112"
  },
  {
    "name": "Hvozdec",
    "lat": "48.9926",
    "lon": "14.6276"
  },
  {
    "name": "Hvozdná",
    "lat": "49.2485",
    "lon": "17.7516"
  },
  {
    "name": "Hvozd",
    "lat": "49.9397",
    "lon": "13.2631"
  },
  {
    "name": "Hvězdoňovice",
    "lat": "49.2199",
    "lon": "15.7622"
  },
  {
    "name": "Hvězdlice",
    "lat": "49.2002",
    "lon": "17.0816"
  }
]