[
  {
    "name": "Kbelany",
    "lat": 49.7323,
    "lon": 13.1263
  },
  {
    "name": "Kbelnice",
    "lat": 50.4548,
    "lon": 15.3506
  },
  {
    "name": "Kbel (Kolín)",
    "lat": 49.9882,
    "lon": 15.1435
  },
  {
    "name": "Kbel (Plzeň-jih)",
    "lat": 49.4931,
    "lon": 13.3652
  },
  {
    "name": "Kbel (Mladá Boleslav)",
    "lat": 50.2917,
    "lon": 14.8465
  }
]