[
  {
    "name": "Kuňovice",
    "lat": "49.6586",
    "lon": "14.9989"
  },
  {
    "name": "Kublov",
    "lat": "49.9437",
    "lon": "13.8767"
  },
  {
    "name": "Kutrovice",
    "lat": "50.2615",
    "lon": "14.0189"
  },
  {
    "name": "Kutná Hora",
    "lat": "49.9487",
    "lon": "15.2681"
  },
  {
    "name": "Kunice",
    "lat": "49.9366",
    "lon": "14.6712"
  },
  {
    "name": "Kunžak",
    "lat": "49.1215",
    "lon": "15.1907"
  },
  {
    "name": "Kučeř",
    "lat": "49.4342",
    "lon": "14.2456"
  },
  {
    "name": "Kubova Huť",
    "lat": "48.9832",
    "lon": "13.7718"
  },
  {
    "name": "Kuřimany",
    "lat": "49.2039",
    "lon": "13.9681"
  },
  {
    "name": "Kunějovice",
    "lat": "49.8620",
    "lon": "13.2369"
  },
  {
    "name": "Kunratice u Cvikova",
    "lat": "50.7689",
    "lon": "14.6789"
  },
  {
    "name": "Kunratice",
    "lat": "50.8188",
    "lon": "14.4199"
  },
  {
    "name": "Kunratice",
    "lat": "50.8188",
    "lon": "14.4199"
  },
  {
    "name": "Kunemil",
    "lat": "49.7075",
    "lon": "15.4315"
  },
  {
    "name": "Kunčice",
    "lat": "50.2175",
    "lon": "15.6359"
  },
  {
    "name": "Kunětice",
    "lat": "50.0706",
    "lon": "15.8269"
  },
  {
    "name": "Kukle",
    "lat": "49.7931",
    "lon": "16.4256"
  },
  {
    "name": "Kunčina",
    "lat": "49.7946",
    "lon": "16.6276"
  },
  {
    "name": "Kuks",
    "lat": "50.4012",
    "lon": "15.8899"
  },
  {
    "name": "Kunčice nad Labem",
    "lat": "50.5819",
    "lon": "15.6194"
  },
  {
    "name": "Kunvald",
    "lat": "50.1292",
    "lon": "16.4999"
  },
  {
    "name": "Kulířov",
    "lat": "49.3793",
    "lon": "16.8468"
  },
  {
    "name": "Kunčina Ves",
    "lat": "49.4470",
    "lon": "16.4753"
  },
  {
    "name": "Kunice",
    "lat": "49.9366",
    "lon": "14.6712"
  },
  {
    "name": "Kuničky",
    "lat": "49.4349",
    "lon": "16.6814"
  },
  {
    "name": "Kunštát",
    "lat": "49.5072",
    "lon": "16.5185"
  },
  {
    "name": "Kupařovice",
    "lat": "49.0432",
    "lon": "16.4907"
  },
  {
    "name": "Kuřim",
    "lat": "49.2988",
    "lon": "16.5314"
  },
  {
    "name": "Kuřimská Nová Ves",
    "lat": "49.3458",
    "lon": "16.2970"
  },
  {
    "name": "Kuřimské Jestřabí",
    "lat": "49.3466",
    "lon": "16.3139"
  },
  {
    "name": "Kurdějov",
    "lat": "48.9578",
    "lon": "16.7635"
  },
  {
    "name": "Kuželov",
    "lat": "48.8596",
    "lon": "17.4888"
  },
  {
    "name": "Kunkovice",
    "lat": "49.1827",
    "lon": "17.1742"
  },
  {
    "name": "Kurovice",
    "lat": "49.2891",
    "lon": "17.5156"
  },
  {
    "name": "Kuroslepy",
    "lat": "49.1544",
    "lon": "16.2103"
  },
  {
    "name": "Kudlovice",
    "lat": "49.1307",
    "lon": "17.4560"
  },
  {
    "name": "Kunovice",
    "lat": "49.0419",
    "lon": "17.4661"
  },
  {
    "name": "Kučerov",
    "lat": "49.2186",
    "lon": "17.0053"
  },
  {
    "name": "Kubšice",
    "lat": "49.0007",
    "lon": "16.4131"
  },
  {
    "name": "Kuchařovice",
    "lat": "48.8760",
    "lon": "16.0770"
  },
  {
    "name": "Kuklík",
    "lat": "49.6299",
    "lon": "16.1131"
  },
  {
    "name": "Kundratice",
    "lat": "49.4025",
    "lon": "16.1347"
  },
  {
    "name": "Kunčice pod Ondřejníkem",
    "lat": "49.5432",
    "lon": "18.2747"
  },
  {
    "name": "Kujavy",
    "lat": "49.7033",
    "lon": "17.9725"
  },
  {
    "name": "Kunín",
    "lat": "49.6338",
    "lon": "17.9896"
  },
  {
    "name": "Kunovice",
    "lat": "49.0419",
    "lon": "17.4661"
  }
]