[
  {
    "name": "Lážovice",
    "lat": "49.8582",
    "lon": "14.0713"
  },
  {
    "name": "Lány",
    "lat": "50.1246",
    "lon": "13.9483"
  },
  {
    "name": "Lázně Toušeň",
    "lat": "50.1693",
    "lon": "14.7160"
  },
  {
    "name": "Láz",
    "lat": "",
    "lon": ""
  },
  {
    "name": "Lásenice",
    "lat": "49.0743",
    "lon": "14.9702"
  },
  {
    "name": "Lázně Kynžvart",
    "lat": "50.0092",
    "lon": "12.6256"
  },
  {
    "name": "Lázně Libverda",
    "lat": "50.8901",
    "lon": "15.1904"
  },
  {
    "name": "Lány",
    "lat": "50.1246",
    "lon": "13.9483"
  },
  {
    "name": "Lány",
    "lat": "50.1246",
    "lon": "13.9483"
  },
  {
    "name": "Lázně Bělohrad",
    "lat": "50.4290",
    "lon": "15.5828"
  },
  {
    "name": "Lány u Dašic",
    "lat": "50.0435",
    "lon": "15.8891"
  },
  {
    "name": "Lázně Bohdaneč",
    "lat": "50.0764",
    "lon": "15.6798"
  },
  {
    "name": "Lánov",
    "lat": "50.6203",
    "lon": "15.6555"
  },
  {
    "name": "Láz",
    "lat": "49.6520",
    "lon": "13.9166"
  }
]