[
  {
    "name": "Lážovice",
    "lat": 49.8582,
    "lon": 14.0713
  },
  {
    "name": "Lázně Toušeň",
    "lat": 50.1693,
    "lon": 14.716
  },
  {
    "name": "Lásenice",
    "lat": 49.0743,
    "lon": 14.9702
  },
  {
    "name": "Lázně Kynžvart",
    "lat": 50.0092,
    "lon": 12.6256
  },
  {
    "name": "Lázně Libverda",
    "lat": 50.8901,
    "lon": 15.1904
  },
  {
    "name": "Lázně Bělohrad",
    "lat": 50.429,
    "lon": 15.5828
  },
  {
    "name": "Lány u Dašic",
    "lat": 50.0435,
    "lon": 15.8891
  },
  {
    "name": "Lázně Bohdaneč",
    "lat": 50.0764,
    "lon": 15.6798
  },
  {
    "name": "Lánov",
    "lat": 50.6203,
    "lon": 15.6555
  },
  {
    "name": "Lány (Chrudim)",
    "lat": 49.9479,
    "lon": 15.7287
  },
  {
    "name": "Lány (Kladno)",
    "lat": 50.1246,
    "lon": 13.9483
  },
  {
    "name": "Lány (Havlíčkův Brod)",
    "lat": 49.7594,
    "lon": 15.7128
  },
  {
    "name": "Lány (Jičín)",
    "lat": 50.4458,
    "lon": 15.5567
  },
  {
    "name": "Lány (Nymburk)",
    "lat": 50.1957,
    "lon": 14.9561
  },
  {
    "name": "Lány (Svitavy)",
    "lat": 49.7402,
    "lon": 16.4786
  },
  {
    "name": "Lány (Kutná Hora)",
    "lat": 49.8485,
    "lon": 15.2871
  },
  {
    "name": "Láz (Příbram)",
    "lat": 49.652,
    "lon": 13.9166
  },
  {
    "name": "Láz (Třebíč)",
    "lat": 49.0123,
    "lon": 15.785
  },
  {
    "name": "Láz (Prachatice)",
    "lat": 48.7801,
    "lon": 13.938
  },
  {
    "name": "Láz (Strakonice)",
    "lat": 49.3457,
    "lon": 13.9258
  },
  {
    "name": "Láz (Tachov)",
    "lat": 49.7223,
    "lon": 12.9455
  }
]