[
  {
    "name": "Líský",
    "lat": "50.2506",
    "lon": "13.9289"
  },
  {
    "name": "Líbeznice",
    "lat": "50.1921",
    "lon": "14.4939"
  },
  {
    "name": "Líšnice",
    "lat": "49.8892",
    "lon": "14.3185"
  },
  {
    "name": "Líšina",
    "lat": "49.6035",
    "lon": "13.1645"
  },
  {
    "name": "Líně",
    "lat": "49.6936",
    "lon": "13.2572"
  },
  {
    "name": "Líšťany",
    "lat": "49.8312",
    "lon": "13.1814"
  },
  {
    "name": "Líté",
    "lat": "49.9136",
    "lon": "13.2607"
  },
  {
    "name": "Líšná",
    "lat": "49.4116",
    "lon": "17.5473"
  },
  {
    "name": "Líšný",
    "lat": "50.6461",
    "lon": "15.2122"
  },
  {
    "name": "Líšťany",
    "lat": "49.8312",
    "lon": "13.1814"
  },
  {
    "name": "Lípa",
    "lat": "49.5542",
    "lon": "15.5447"
  },
  {
    "name": "Lískovice",
    "lat": "50.3362",
    "lon": "15.5546"
  },
  {
    "name": "Lípa nad Orlicí",
    "lat": "50.1356",
    "lon": "16.0980"
  },
  {
    "name": "Líšnice",
    "lat": "49.8892",
    "lon": "14.3185"
  },
  {
    "name": "Lípa",
    "lat": "49.5542",
    "lon": "15.5447"
  },
  {
    "name": "Lísek",
    "lat": "49.5788",
    "lon": "16.1875"
  },
  {
    "name": "Líšná",
    "lat": "49.4116",
    "lon": "17.5473"
  },
  {
    "name": "Líšná",
    "lat": "49.4116",
    "lon": "17.5473"
  },
  {
    "name": "Líšnice",
    "lat": "49.8892",
    "lon": "14.3185"
  }
]