[
  {
    "name": "Miličín",
    "lat": "49.5707",
    "lon": "14.6614"
  },
  {
    "name": "Miřetice",
    "lat": "49.8418",
    "lon": "15.8853"
  },
  {
    "name": "Miskovice",
    "lat": "49.9461",
    "lon": "15.2048"
  },
  {
    "name": "Milčice",
    "lat": "50.1062",
    "lon": "14.9924"
  },
  {
    "name": "Milovice",
    "lat": "50.2260",
    "lon": "14.8886"
  },
  {
    "name": "Mirošovice",
    "lat": "49.9098",
    "lon": "14.7112"
  },
  {
    "name": "Milešov",
    "lat": "",
    "lon": ""
  },
  {
    "name": "Milín",
    "lat": "",
    "lon": ""
  },
  {
    "name": "Milostín",
    "lat": "50.1938",
    "lon": "13.6691"
  },
  {
    "name": "Milý",
    "lat": "50.2327",
    "lon": "13.8670"
  },
  {
    "name": "Mirkovice",
    "lat": "48.8110",
    "lon": "14.3912"
  },
  {
    "name": "Milevsko",
    "lat": "49.4503",
    "lon": "14.3595"
  },
  {
    "name": "Minice",
    "lat": "49.4898",
    "lon": "14.0121"
  },
  {
    "name": "Mirotice",
    "lat": "49.4290",
    "lon": "14.0369"
  },
  {
    "name": "Mirovice",
    "lat": "49.5158",
    "lon": "14.0366"
  },
  {
    "name": "Mišovice",
    "lat": "49.4953",
    "lon": "14.0053"
  },
  {
    "name": "Mičovice",
    "lat": "48.9835",
    "lon": "14.1251"
  },
  {
    "name": "Milejovice",
    "lat": "49.1881",
    "lon": "13.9301"
  },
  {
    "name": "Miloňovice",
    "lat": "49.2205",
    "lon": "13.9586"
  },
  {
    "name": "Milavče",
    "lat": "49.4659",
    "lon": "12.9823"
  },
  {
    "name": "Milhostov",
    "lat": "50.1560",
    "lon": "12.4532"
  },
  {
    "name": "Milíkov",
    "lat": "50.0558",
    "lon": "12.5476"
  },
  {
    "name": "Mileč",
    "lat": "49.4695",
    "lon": "13.6044"
  },
  {
    "name": "Milínov",
    "lat": "49.6431",
    "lon": "13.5659"
  },
  {
    "name": "Mirošov",
    "lat": "49.4653",
    "lon": "16.1561"
  },
  {
    "name": "Milíře",
    "lat": "49.7963",
    "lon": "12.5504"
  },
  {
    "name": "Mimoň",
    "lat": "50.6589",
    "lon": "14.7244"
  },
  {
    "name": "Mikulášovice",
    "lat": "50.9653",
    "lon": "14.3637"
  },
  {
    "name": "Michalovice",
    "lat": "49.5769",
    "lon": "15.5243"
  },
  {
    "name": "Miřejovice",
    "lat": "50.5532",
    "lon": "14.1089"
  },
  {
    "name": "Mikulov",
    "lat": "48.8069",
    "lon": "16.6384"
  },
  {
    "name": "Michalovice",
    "lat": "49.5769",
    "lon": "15.5243"
  },
  {
    "name": "Miřetice",
    "lat": "49.8418",
    "lon": "15.8853"
  },
  {
    "name": "Miletín",
    "lat": "50.4041",
    "lon": "15.6823"
  },
  {
    "name": "Milovice u Hořic",
    "lat": "50.3302",
    "lon": "15.6305"
  },
  {
    "name": "Mikulovice",
    "lat": "48.9568",
    "lon": "16.0947"
  },
  {
    "name": "Mikuleč",
    "lat": "49.8058",
    "lon": "16.4225"
  },
  {
    "name": "Mistrovice",
    "lat": "50.0237",
    "lon": "16.5715"
  },
  {
    "name": "Milonice",
    "lat": "49.3666",
    "lon": "16.5664"
  },
  {
    "name": "Mikulov",
    "lat": "48.8069",
    "lon": "16.6384"
  },
  {
    "name": "Milovice",
    "lat": "50.2260",
    "lon": "14.8886"
  },
  {
    "name": "Mikulčice",
    "lat": "48.8165",
    "lon": "17.0510"
  },
  {
    "name": "Milotice",
    "lat": "48.9556",
    "lon": "17.1415"
  },
  {
    "name": "Milíčov",
    "lat": "49.3955",
    "lon": "15.3920"
  },
  {
    "name": "Mirošov",
    "lat": "49.4653",
    "lon": "16.1561"
  },
  {
    "name": "Mikulovice",
    "lat": "48.9568",
    "lon": "16.0947"
  },
  {
    "name": "Mistřice",
    "lat": "49.0862",
    "lon": "17.5359"
  },
  {
    "name": "Milešovice",
    "lat": "49.0827",
    "lon": "16.8542"
  },
  {
    "name": "Milonice",
    "lat": "49.3666",
    "lon": "16.5664"
  },
  {
    "name": "Mikulovice",
    "lat": "48.9568",
    "lon": "16.0947"
  },
  {
    "name": "Milíčovice",
    "lat": "48.8918",
    "lon": "15.9313"
  },
  {
    "name": "Miroslav",
    "lat": "48.9473",
    "lon": "16.3135"
  },
  {
    "name": "Miroslavské Knínice",
    "lat": "48.9775",
    "lon": "16.3220"
  },
  {
    "name": "Milasín",
    "lat": "49.4662",
    "lon": "16.2288"
  },
  {
    "name": "Milešín",
    "lat": "49.3684",
    "lon": "16.2017"
  },
  {
    "name": "Mirošov",
    "lat": "49.4653",
    "lon": "16.1561"
  },
  {
    "name": "Milotice nad Opavou",
    "lat": "49.9957",
    "lon": "17.5420"
  },
  {
    "name": "Milíkov",
    "lat": "50.0558",
    "lon": "12.5476"
  },
  {
    "name": "Mikolajice",
    "lat": "",
    "lon": ""
  },
  {
    "name": "Milenov",
    "lat": "49.5626",
    "lon": "17.6670"
  },
  {
    "name": "Milotice nad Bečvou",
    "lat": "49.5365",
    "lon": "17.8398"
  },
  {
    "name": "Mikulůvka",
    "lat": "49.4135",
    "lon": "17.9251"
  },
  {
    "name": "Mikulovice",
    "lat": "",
    "lon": ""
  }
]