[
  {
    "name": "Mířkov",
    "lat": 49.5894,
    "lon": 12.8808
  },
  {
    "name": "Mírová",
    "lat": 50.2372,
    "lon": 12.77
  },
  {
    "name": "Míšov",
    "lat": 49.6197,
    "lon": 13.7283
  },
  {
    "name": "Místo",
    "lat": 50.4471,
    "lon": 13.2672
  },
  {
    "name": "Míčov-Sušice",
    "lat": 49.9047,
    "lon": 15.6042
  },
  {
    "name": "Mírová pod Kozákovem",
    "lat": 50.5918,
    "lon": 15.1942
  },
  {
    "name": "Míchov",
    "lat": 49.524,
    "lon": 16.6158
  },
  {
    "name": "Míškovice",
    "lat": 49.2766,
    "lon": 17.5488
  },
  {
    "name": "Mírov",
    "lat": 49.7981,
    "lon": 16.8475
  }
]