[
  {
    "name": "Ohaře",
    "lat": "50.0978",
    "lon": "15.2950"
  },
  {
    "name": "Ohrobec",
    "lat": "49.9418",
    "lon": "14.4316"
  },
  {
    "name": "Ohrazenice",
    "lat": "49.7870",
    "lon": "13.9595"
  },
  {
    "name": "Ohníč",
    "lat": "50.5872",
    "lon": "13.8444"
  },
  {
    "name": "Ohnišťany",
    "lat": "50.3295",
    "lon": "15.5110"
  },
  {
    "name": "Ohařice",
    "lat": "50.4542",
    "lon": "15.2586"
  },
  {
    "name": "Ohaveč",
    "lat": "50.4494",
    "lon": "15.3091"
  },
  {
    "name": "Ohnišov",
    "lat": "50.3226",
    "lon": "16.2138"
  },
  {
    "name": "Ohrazenice",
    "lat": "49.7870",
    "lon": "13.9595"
  },
  {
    "name": "Ohrozim",
    "lat": "49.4864",
    "lon": "17.0205"
  }
]