[
  {
    "name": "Oráčov",
    "lat": "50.1115",
    "lon": "13.5485"
  },
  {
    "name": "Orlík nad Vltavou",
    "lat": "49.5107",
    "lon": "14.1647"
  },
  {
    "name": "Orel",
    "lat": "49.9193",
    "lon": "15.8390"
  },
  {
    "name": "Orlické Záhoří",
    "lat": "50.2789",
    "lon": "16.4749"
  },
  {
    "name": "Orlické Podhůří",
    "lat": "49.9902",
    "lon": "16.3572"
  },
  {
    "name": "Orličky",
    "lat": "50.0315",
    "lon": "16.6815"
  },
  {
    "name": "Orlovice",
    "lat": "49.2392",
    "lon": "17.0937"
  },
  {
    "name": "Orlová",
    "lat": "49.8459",
    "lon": "18.4309"
  }
]