[
  {
    "name": "Skřipel",
    "lat": "49.8420",
    "lon": "14.0670"
  },
  {
    "name": "Skuhrov",
    "lat": "49.8733",
    "lon": "14.1467"
  },
  {
    "name": "Skvrňov",
    "lat": "49.8971",
    "lon": "15.0018"
  },
  {
    "name": "Skalsko",
    "lat": "50.4271",
    "lon": "14.7590"
  },
  {
    "name": "Skorkov",
    "lat": "50.2317",
    "lon": "14.7493"
  },
  {
    "name": "Skryje",
    "lat": "49.3936",
    "lon": "16.3107"
  },
  {
    "name": "Skály",
    "lat": "49.1834",
    "lon": "13.9929"
  },
  {
    "name": "Skály",
    "lat": "49.1834",
    "lon": "13.9929"
  },
  {
    "name": "Skočice",
    "lat": "49.1861",
    "lon": "14.1043"
  },
  {
    "name": "Skalice",
    "lat": "48.9644",
    "lon": "16.2248"
  },
  {
    "name": "Skopytce",
    "lat": "49.3314",
    "lon": "14.7980"
  },
  {
    "name": "Skrýchov u Malšic",
    "lat": "49.3302",
    "lon": "14.5956"
  },
  {
    "name": "Skalná",
    "lat": "50.1702",
    "lon": "12.3610"
  },
  {
    "name": "Skašov",
    "lat": "49.5105",
    "lon": "13.4314"
  },
  {
    "name": "Skomelno",
    "lat": "49.8474",
    "lon": "13.6422"
  },
  {
    "name": "Skořice",
    "lat": "49.6777",
    "lon": "13.7053"
  },
  {
    "name": "Skapce",
    "lat": "49.6570",
    "lon": "12.9903"
  },
  {
    "name": "Skalice u České Lípy",
    "lat": "",
    "lon": ""
  },
  {
    "name": "Skalka u Doks",
    "lat": "",
    "lon": ""
  },
  {
    "name": "Skuhrov",
    "lat": "49.8733",
    "lon": "14.1467"
  },
  {
    "name": "Skršín",
    "lat": "50.4656",
    "lon": "13.7544"
  },
  {
    "name": "Skorkov",
    "lat": "50.2317",
    "lon": "14.7493"
  },
  {
    "name": "Skryje",
    "lat": "49.3936",
    "lon": "16.3107"
  },
  {
    "name": "Skuhrov",
    "lat": "49.8733",
    "lon": "14.1467"
  },
  {
    "name": "Skalice",
    "lat": "48.9644",
    "lon": "16.2248"
  },
  {
    "name": "Skřivany",
    "lat": "50.2686",
    "lon": "15.4991"
  },
  {
    "name": "Skuteč",
    "lat": "49.8434",
    "lon": "15.9962"
  },
  {
    "name": "Skuhrov nad Bělou",
    "lat": "50.2294",
    "lon": "16.2923"
  },
  {
    "name": "Sklené",
    "lat": "49.7067",
    "lon": "16.5296"
  },
  {
    "name": "Skořenice",
    "lat": "50.0313",
    "lon": "16.2220"
  },
  {
    "name": "Skalice nad Svitavou",
    "lat": "49.4808",
    "lon": "16.6073"
  },
  {
    "name": "Skrchov",
    "lat": "49.5776",
    "lon": "16.5491"
  },
  {
    "name": "Skalička",
    "lat": "49.5188",
    "lon": "17.7949"
  },
  {
    "name": "Skryje",
    "lat": "49.3936",
    "lon": "16.3107"
  },
  {
    "name": "Skalka",
    "lat": "49.0358",
    "lon": "17.2072"
  },
  {
    "name": "Skoronice",
    "lat": "48.9813",
    "lon": "17.1534"
  },
  {
    "name": "Skaštice",
    "lat": "49.3324",
    "lon": "17.4173"
  },
  {
    "name": "Skalka",
    "lat": "49.0358",
    "lon": "17.2072"
  },
  {
    "name": "Skřípov",
    "lat": "49.5835",
    "lon": "16.8202"
  },
  {
    "name": "Skalice",
    "lat": "48.9644",
    "lon": "16.2248"
  },
  {
    "name": "Sklené",
    "lat": "49.7067",
    "lon": "16.5296"
  },
  {
    "name": "Sklené nad Oslavou",
    "lat": "49.4390",
    "lon": "16.0564"
  },
  {
    "name": "Skorotice",
    "lat": "49.4573",
    "lon": "16.3592"
  },
  {
    "name": "Skřinářov",
    "lat": "49.3470",
    "lon": "16.1720"
  },
  {
    "name": "Skotnice",
    "lat": "49.6576",
    "lon": "18.1339"
  },
  {
    "name": "Skrbeň",
    "lat": "49.6416",
    "lon": "17.1781"
  },
  {
    "name": "Skřipov",
    "lat": "",
    "lon": ""
  },
  {
    "name": "Skalička",
    "lat": "49.5188",
    "lon": "17.7949"
  },
  {
    "name": "Skorošice",
    "lat": "50.3088",
    "lon": "17.0806"
  }
]