[
  {
    "name": "Soběhrdy",
    "lat": "49.8210",
    "lon": "14.7342"
  },
  {
    "name": "Soutice",
    "lat": "49.7261",
    "lon": "15.0526"
  },
  {
    "name": "Soběšín",
    "lat": "49.7911",
    "lon": "14.9559"
  },
  {
    "name": "Souňov",
    "lat": "49.8800",
    "lon": "15.3156"
  },
  {
    "name": "Sojovice",
    "lat": "50.2223",
    "lon": "14.7631"
  },
  {
    "name": "Sovínky",
    "lat": "50.3731",
    "lon": "14.7871"
  },
  {
    "name": "Sokoleč",
    "lat": "50.0985",
    "lon": "15.1073"
  },
  {
    "name": "Solenice",
    "lat": "49.6173",
    "lon": "14.1958"
  },
  {
    "name": "Soběnov",
    "lat": "48.7618",
    "lon": "14.5445"
  },
  {
    "name": "Sousedovice",
    "lat": "49.2320",
    "lon": "13.8685"
  },
  {
    "name": "Soběslav",
    "lat": "49.2594",
    "lon": "14.7193"
  },
  {
    "name": "Soběšice",
    "lat": "49.2078",
    "lon": "13.6841"
  },
  {
    "name": "Soběkury",
    "lat": "49.5761",
    "lon": "13.2393"
  },
  {
    "name": "Sokolov",
    "lat": "50.1809",
    "lon": "12.6395"
  },
  {
    "name": "Sosnová",
    "lat": "",
    "lon": ""
  },
  {
    "name": "Soběslavice",
    "lat": "50.6049",
    "lon": "15.0341"
  },
  {
    "name": "Sobíňov",
    "lat": "49.7010",
    "lon": "15.7669"
  },
  {
    "name": "Sovětice",
    "lat": "50.3076",
    "lon": "15.7064"
  },
  {
    "name": "Sobětuchy",
    "lat": "49.9314",
    "lon": "15.7634"
  },
  {
    "name": "Sobčice",
    "lat": "50.3722",
    "lon": "15.5147"
  },
  {
    "name": "Soběraz",
    "lat": "50.4634",
    "lon": "15.4020"
  },
  {
    "name": "Sobotka",
    "lat": "50.4676",
    "lon": "15.1766"
  },
  {
    "name": "Sopřeč",
    "lat": "50.0936",
    "lon": "15.5567"
  },
  {
    "name": "Sovolusky",
    "lat": "49.9692",
    "lon": "15.5372"
  },
  {
    "name": "Solnice",
    "lat": "50.2030",
    "lon": "16.2383"
  },
  {
    "name": "Sobkovice",
    "lat": "50.0479",
    "lon": "16.5950"
  },
  {
    "name": "Sopotnice",
    "lat": "50.0593",
    "lon": "16.3452"
  },
  {
    "name": "Sobotovice",
    "lat": "49.0601",
    "lon": "16.5568"
  },
  {
    "name": "Sokolnice",
    "lat": "49.1137",
    "lon": "16.7211"
  },
  {
    "name": "Sobůlky",
    "lat": "49.0196",
    "lon": "17.0789"
  },
  {
    "name": "Soběsuky",
    "lat": "49.2336",
    "lon": "17.3595"
  },
  {
    "name": "Soběšovice",
    "lat": "49.7249",
    "lon": "18.4662"
  },
  {
    "name": "Sosnová",
    "lat": "",
    "lon": ""
  },
  {
    "name": "Soběchleby",
    "lat": "49.4789",
    "lon": "17.6515"
  },
  {
    "name": "Sobíšky",
    "lat": "49.5038",
    "lon": "17.4508"
  },
  {
    "name": "Sobotín",
    "lat": "50.0117",
    "lon": "17.0908"
  }
]