[
  {
    "name": "Spomyšl",
    "lat": 50.3354,
    "lon": 14.3605
  },
  {
    "name": "Spáňov",
    "lat": 49.4145,
    "lon": 12.9873
  },
  {
    "name": "Spálené Poříčí",
    "lat": 49.6145,
    "lon": 13.6043
  },
  {
    "name": "Spořice",
    "lat": 50.4413,
    "lon": 13.3921
  },
  {
    "name": "Spojil",
    "lat": 50.0421,
    "lon": 15.8219
  },
  {
    "name": "Spešov",
    "lat": 49.3948,
    "lon": 16.6289
  },
  {
    "name": "Spytihněv",
    "lat": 49.1405,
    "lon": 17.4977
  },
  {
    "name": "Spělkov",
    "lat": 49.6748,
    "lon": 16.1609
  },
  {
    "name": "Spálov",
    "lat": 49.7041,
    "lon": 17.7224
  }
]