[
  {
    "name": "Svatá",
    "lat": 49.9391,
    "lon": 13.9615
  },
  {
    "name": "Svatý Jan pod Skalou",
    "lat": 49.9691,
    "lon": 14.1338
  },
  {
    "name": "Svinaře",
    "lat": 49.892,
    "lon": 14.1842
  },
  {
    "name": "Svinařov",
    "lat": 50.1813,
    "lon": 14.0503
  },
  {
    "name": "Svatý Mikuláš",
    "lat": 49.9909,
    "lon": 15.3505
  },
  {
    "name": "Svémyslice",
    "lat": 50.1459,
    "lon": 14.6481
  },
  {
    "name": "Světice",
    "lat": 49.9701,
    "lon": 14.6658
  },
  {
    "name": "Svojetice",
    "lat": 49.9714,
    "lon": 14.7387
  },
  {
    "name": "Svrkyně",
    "lat": 50.1714,
    "lon": 14.2948
  },
  {
    "name": "Svaté Pole",
    "lat": 49.7513,
    "lon": 14.169
  },
  {
    "name": "Svatý Jan",
    "lat": 49.6368,
    "lon": 14.311
  },
  {
    "name": "Svojetín",
    "lat": 50.19,
    "lon": 13.6209
  },
  {
    "name": "Svatý Jan nad Malší",
    "lat": 48.824,
    "lon": 14.5085
  },
  {
    "name": "Světlík",
    "lat": 48.7315,
    "lon": 14.2111
  },
  {
    "name": "Světce",
    "lat": 49.2706,
    "lon": 14.9414
  },
  {
    "name": "Svépravice",
    "lat": 49.4956,
    "lon": 15.2327
  },
  {
    "name": "Svatá Maří",
    "lat": 49.0645,
    "lon": 13.8314
  },
  {
    "name": "Svrabov",
    "lat": 49.4475,
    "lon": 14.6265
  },
  {
    "name": "Svéradice",
    "lat": 49.3714,
    "lon": 13.7398
  },
  {
    "name": "Svatava",
    "lat": 50.1923,
    "lon": 12.625
  },
  {
    "name": "Svojšín",
    "lat": 49.7651,
    "lon": 12.911
  },
  {
    "name": "Svojkov",
    "lat": 50.7193,
    "lon": 14.599
  },
  {
    "name": "Svor",
    "lat": 50.7919,
    "lon": 14.5968
  },
  {
    "name": "Světlá pod Ještědem",
    "lat": 50.7113,
    "lon": 14.9854
  },
  {
    "name": "Svijanský Újezd",
    "lat": 50.5872,
    "lon": 15.0433
  },
  {
    "name": "Svijany",
    "lat": 50.5722,
    "lon": 15.057
  },
  {
    "name": "Světec",
    "lat": 50.5761,
    "lon": 13.8116
  },
  {
    "name": "Světlá nad Sázavou",
    "lat": 49.668,
    "lon": 15.4039
  },
  {
    "name": "Světí",
    "lat": 50.2568,
    "lon": 15.7762
  },
  {
    "name": "Svratouch",
    "lat": 49.7244,
    "lon": 16.0342
  },
  {
    "name": "Svatojanský Újezd",
    "lat": 50.4261,
    "lon": 15.5421
  },
  {
    "name": "Svinčany",
    "lat": 49.9766,
    "lon": 15.6395
  },
  {
    "name": "Svitavy",
    "lat": 49.7562,
    "lon": 16.4689
  },
  {
    "name": "Svojanov",
    "lat": 49.6246,
    "lon": 16.4102
  },
  {
    "name": "Svoboda nad Úpou",
    "lat": 50.6262,
    "lon": 15.8164
  },
  {
    "name": "Svatý Jiří",
    "lat": 49.9721,
    "lon": 16.2705
  },
  {
    "name": "Světlá",
    "lat": 49.5657,
    "lon": 16.7181
  },
  {
    "name": "Svinošice",
    "lat": 49.3346,
    "lon": 16.5774
  },
  {
    "name": "Svitávka",
    "lat": 49.5018,
    "lon": 16.5979
  },
  {
    "name": "Svatobořice-Mistřín",
    "lat": 48.9778,
    "lon": 17.0915
  },
  {
    "name": "Světnov",
    "lat": 49.6205,
    "lon": 15.9552
  },
  {
    "name": "Svratka",
    "lat": 49.7112,
    "lon": 16.0316
  },
  {
    "name": "Světlá Hora",
    "lat": 50.0456,
    "lon": 17.4009
  },
  {
    "name": "Svobodné Heřmanice",
    "lat": 49.946,
    "lon": 17.6743
  },
  {
    "name": "Sviadnov",
    "lat": 49.6893,
    "lon": 18.3275
  },
  {
    "name": "Svésedlice",
    "lat": 49.573,
    "lon": 17.3811
  },
  {
    "name": "Svatoňovice",
    "lat": 49.7935,
    "lon": 17.6672
  },
  {
    "name": "Svébohov",
    "lat": 49.9199,
    "lon": 16.8392
  },
  {
    "name": "Svárov (Uherské Hradiště)",
    "lat": 49.1164,
    "lon": 17.6245
  },
  {
    "name": "Svárov (Kladno)",
    "lat": 50.0624,
    "lon": 14.1504
  },
  {
    "name": "Svárov (Liberec)",
    "lat": 50.7928,
    "lon": 15.0065
  },
  {
    "name": "Svárov (Blansko)",
    "lat": 49.5917,
    "lon": 16.6172
  },
  {
    "name": "Svárov (Sokolov)",
    "lat": 50.1286,
    "lon": 12.7469
  },
  {
    "name": "Svojšice (Pardubice)",
    "lat": 49.9653,
    "lon": 15.601
  },
  {
    "name": "Svojšice (Příbram)",
    "lat": 49.5727,
    "lon": 14.0429
  },
  {
    "name": "Svojšice (Kolín)",
    "lat": 50.0027,
    "lon": 15.0417
  },
  {
    "name": "Svojšice (Klatovy)",
    "lat": 49.2436,
    "lon": 13.4526
  },
  {
    "name": "Sviny (Žďár nad Sázavou)",
    "lat": 49.3642,
    "lon": 16.085
  },
  {
    "name": "Sviny (Tábor)",
    "lat": 49.187,
    "lon": 14.6352
  },
  {
    "name": "Svojkovice (Jihlava)",
    "lat": 49.1658,
    "lon": 15.6347
  },
  {
    "name": "Svojkovice (Rokycany)",
    "lat": 49.76,
    "lon": 13.648
  },
  {
    "name": "Svídnice (Chrudim)",
    "lat": 49.8899,
    "lon": 15.8137
  },
  {
    "name": "Svídnice (Rychnov nad Kněžnou)",
    "lat": 50.0861,
    "lon": 16.2233
  },
  {
    "name": "Svídnice (Nymburk)",
    "lat": 50.2644,
    "lon": 15.1814
  },
  {
    "name": "Svídnice (Most)",
    "lat": 50.6043,
    "lon": 13.4598
  },
  {
    "name": "Svatoslav (Brno-venkov)",
    "lat": 49.3018,
    "lon": 16.3088
  },
  {
    "name": "Svatoslav (Třebíč)",
    "lat": 49.3191,
    "lon": 15.8485
  },
  {
    "name": "Svatoslav (Jihlava)",
    "lat": 49.3562,
    "lon": 15.6892
  },
  {
    "name": "Svojek",
    "lat": 50.5534168,
    "lon": 15.4555556
  }
]