[
  {
    "name": "Teplýšovice",
    "lat": 49.8061,
    "lon": 14.8016
  },
  {
    "name": "Tehovec",
    "lat": 49.9815,
    "lon": 14.7303
  },
  {
    "name": "Temelín",
    "lat": 49.1928,
    "lon": 14.3487
  },
  {
    "name": "Temešvár",
    "lat": 49.3564,
    "lon": 14.2635
  },
  {
    "name": "Teplá",
    "lat": 49.9821,
    "lon": 12.8632
  },
  {
    "name": "Teplička",
    "lat": 50.1486,
    "lon": 12.8516
  },
  {
    "name": "Terešov",
    "lat": 49.8968,
    "lon": 13.6998
  },
  {
    "name": "Teplice",
    "lat": 50.6407,
    "lon": 13.8244
  },
  {
    "name": "Teplice nad Metují",
    "lat": 50.5939,
    "lon": 16.1708
  },
  {
    "name": "Tetov",
    "lat": 50.0805,
    "lon": 15.4456
  },
  {
    "name": "Telecí",
    "lat": 49.6949,
    "lon": 16.1811
  },
  {
    "name": "Tetčice",
    "lat": 49.1702,
    "lon": 16.4056
  },
  {
    "name": "Tečovice",
    "lat": 49.2211,
    "lon": 17.5873
  },
  {
    "name": "Telč",
    "lat": 49.1848,
    "lon": 15.4525
  },
  {
    "name": "Teplice nad Bečvou",
    "lat": 49.5285,
    "lon": 17.7401
  },
  {
    "name": "Tehov (Benešov)",
    "lat": 49.7354,
    "lon": 14.9667
  },
  {
    "name": "Tehov (Praha-východ)",
    "lat": 49.9715,
    "lon": 14.6938
  },
  {
    "name": "Tetín (Beroun)",
    "lat": 49.9493,
    "lon": 14.1022
  },
  {
    "name": "Tetín (Jičín)",
    "lat": 50.4248,
    "lon": 15.6322
  },
  {
    "name": "Terezín (Litoměřice)",
    "lat": 50.5107,
    "lon": 14.1497
  },
  {
    "name": "Terezín (Hodonín)",
    "lat": 48.9555,
    "lon": 16.9426
  },
  {
    "name": "Terezín (Šumperk)",
    "lat": 50.0161,
    "lon": 17.0393
  },
  {
    "name": "Telnice (Brno-venkov)",
    "lat": 49.1019,
    "lon": 16.7178
  },
  {
    "name": "Telnice (Ústí nad Labem)",
    "lat": 50.733,
    "lon": 13.9578
  }
]