[
  {
    "name": "Tichonice",
    "lat": "49.7771",
    "lon": "14.9923"
  },
  {
    "name": "Tisem",
    "lat": "49.7556",
    "lon": "14.6080"
  },
  {
    "name": "Tismice",
    "lat": "50.0562",
    "lon": "14.8211"
  },
  {
    "name": "Tišice",
    "lat": "50.2696",
    "lon": "14.5557"
  },
  {
    "name": "Tis u Blatna",
    "lat": "50.0857",
    "lon": "13.3478"
  },
  {
    "name": "Tisová",
    "lat": "49.9363",
    "lon": "16.2222"
  },
  {
    "name": "Tisá",
    "lat": "50.7845",
    "lon": "14.0313"
  },
  {
    "name": "Tis",
    "lat": "49.7050",
    "lon": "15.4932"
  },
  {
    "name": "Tisovec",
    "lat": "49.8244",
    "lon": "15.9146"
  },
  {
    "name": "Tisová",
    "lat": "49.9363",
    "lon": "16.2222"
  },
  {
    "name": "Tišnov",
    "lat": "49.3488",
    "lon": "16.4245"
  },
  {
    "name": "Tišnovská Nová Ves",
    "lat": "49.3839",
    "lon": "16.2932"
  },
  {
    "name": "Tichov",
    "lat": "49.1774",
    "lon": "17.9826"
  },
  {
    "name": "Tištín",
    "lat": "49.3069",
    "lon": "17.1654"
  },
  {
    "name": "Tichá",
    "lat": "49.5700",
    "lon": "18.2215"
  }
]