[
  {
    "name": "Tomice",
    "lat": "49.6450",
    "lon": "15.1571"
  },
  {
    "name": "Točník",
    "lat": "49.8855",
    "lon": "13.8827"
  },
  {
    "name": "Toušice",
    "lat": "49.9879",
    "lon": "15.0065"
  },
  {
    "name": "Tochovice",
    "lat": "49.5955",
    "lon": "13.9924"
  },
  {
    "name": "Toužim",
    "lat": "50.0608",
    "lon": "12.9850"
  },
  {
    "name": "Tojice",
    "lat": "49.4925",
    "lon": "13.6265"
  },
  {
    "name": "Toužetín",
    "lat": "50.3153",
    "lon": "13.8861"
  },
  {
    "name": "Topolná",
    "lat": "49.1219",
    "lon": "17.5443"
  },
  {
    "name": "Topolany",
    "lat": "49.2774",
    "lon": "17.0403"
  },
  {
    "name": "Tovéř",
    "lat": "49.6400",
    "lon": "17.3190"
  },
  {
    "name": "Tovačov",
    "lat": "49.4305",
    "lon": "17.2881"
  }
]