[
  {
    "name": "Tvrzice",
    "lat": 49.1217,
    "lon": 13.9671
  },
  {
    "name": "Tvarožná",
    "lat": 49.1918,
    "lon": 16.7715
  },
  {
    "name": "Tvrdonice",
    "lat": 48.7602,
    "lon": 16.9944
  },
  {
    "name": "Tvarožná Lhota",
    "lat": 48.8774,
    "lon": 17.3593
  },
  {
    "name": "Tvorovice",
    "lat": 49.3742,
    "lon": 17.2214
  },
  {
    "name": "Tvořihráz",
    "lat": 48.9175,
    "lon": 16.1358
  },
  {
    "name": "Tvrdkov",
    "lat": 49.8955,
    "lon": 17.1781
  }
]