[
  {
    "name": "Týnec nad Sázavou",
    "lat": "49.8335",
    "lon": "14.5900"
  },
  {
    "name": "Týnec nad Labem",
    "lat": "50.0419",
    "lon": "15.3581"
  },
  {
    "name": "Týn nad Vltavou",
    "lat": "49.2234",
    "lon": "14.4211"
  },
  {
    "name": "Týnec",
    "lat": "48.7794",
    "lon": "17.0132"
  },
  {
    "name": "Týniště",
    "lat": "49.5211",
    "lon": "13.4176"
  },
  {
    "name": "Týček",
    "lat": "49.8692",
    "lon": "13.7943"
  },
  {
    "name": "Týniště nad Orlicí",
    "lat": "50.1514",
    "lon": "16.0777"
  },
  {
    "name": "Týnišťko",
    "lat": "49.9989",
    "lon": "16.0971"
  },
  {
    "name": "Týnec",
    "lat": "48.7794",
    "lon": "17.0132"
  },
  {
    "name": "Týn nad Bečvou",
    "lat": "49.5170",
    "lon": "17.6181"
  }
]