[
  {
    "name": "Těchařovice",
    "lat": "49.6004",
    "lon": "14.0481"
  },
  {
    "name": "Těchobuz",
    "lat": "49.5101",
    "lon": "14.9306"
  },
  {
    "name": "Těmice",
    "lat": "49.3518",
    "lon": "15.0604"
  },
  {
    "name": "Těšovice",
    "lat": "49.0571",
    "lon": "14.0239"
  },
  {
    "name": "Těně",
    "lat": "49.7512",
    "lon": "13.7962"
  },
  {
    "name": "Těškov",
    "lat": "49.8022",
    "lon": "13.6980"
  },
  {
    "name": "Těšovice",
    "lat": "49.0571",
    "lon": "14.0239"
  },
  {
    "name": "Těchlovice",
    "lat": "50.2075",
    "lon": "15.7112"
  },
  {
    "name": "Těchlovice",
    "lat": "50.2075",
    "lon": "15.7112"
  },
  {
    "name": "Těchonín",
    "lat": "50.0649",
    "lon": "16.6179"
  },
  {
    "name": "Těšany",
    "lat": "49.0394",
    "lon": "16.7701"
  },
  {
    "name": "Těmice",
    "lat": "49.3518",
    "lon": "15.0604"
  },
  {
    "name": "Těšetice",
    "lat": "49.5932",
    "lon": "17.1261"
  },
  {
    "name": "Těrlicko",
    "lat": "49.7520",
    "lon": "18.4829"
  },
  {
    "name": "Těšetice",
    "lat": "49.5932",
    "lon": "17.1261"
  },
  {
    "name": "Těškovice",
    "lat": "49.8141",
    "lon": "18.0209"
  }
]