[
  {
    "name": "Třebešice",
    "lat": "49.7752",
    "lon": "14.8318"
  },
  {
    "name": "Třebichovice",
    "lat": "50.1904",
    "lon": "14.0790"
  },
  {
    "name": "Třebíz",
    "lat": "50.2694",
    "lon": "13.9903"
  },
  {
    "name": "Třebusice",
    "lat": "50.2008",
    "lon": "14.1805"
  },
  {
    "name": "Třebovle",
    "lat": "50.0273",
    "lon": "14.9628"
  },
  {
    "name": "Tři Dvory",
    "lat": "50.0320",
    "lon": "15.2565"
  },
  {
    "name": "Třebešice",
    "lat": "49.7752",
    "lon": "14.8318"
  },
  {
    "name": "Třebětín",
    "lat": "49.7706",
    "lon": "15.2693"
  },
  {
    "name": "Třebonín",
    "lat": "49.8697",
    "lon": "15.3129"
  },
  {
    "name": "Třebestovice",
    "lat": "50.1245",
    "lon": "14.9595"
  },
  {
    "name": "Třebotov",
    "lat": "49.9720",
    "lon": "14.2900"
  },
  {
    "name": "Třebsko",
    "lat": "49.6257",
    "lon": "13.9675"
  },
  {
    "name": "Třeboc",
    "lat": "50.2151",
    "lon": "13.7506"
  },
  {
    "name": "Třtice",
    "lat": "50.1849",
    "lon": "13.8635"
  },
  {
    "name": "Třebětice",
    "lat": "49.0476",
    "lon": "15.5207"
  },
  {
    "name": "Třeboň",
    "lat": "49.0040",
    "lon": "14.7714"
  },
  {
    "name": "Třebohostice",
    "lat": "49.3325",
    "lon": "13.8610"
  },
  {
    "name": "Třešovice",
    "lat": "49.2111",
    "lon": "13.9813"
  },
  {
    "name": "Třebějice",
    "lat": "49.2444",
    "lon": "14.8192"
  },
  {
    "name": "Třebeň",
    "lat": "50.1285",
    "lon": "12.3996"
  },
  {
    "name": "Tři Sekery",
    "lat": "49.9423",
    "lon": "12.6165"
  },
  {
    "name": "Třebčice",
    "lat": "49.4834",
    "lon": "13.6121"
  },
  {
    "name": "Třemošná",
    "lat": "49.8167",
    "lon": "13.3952"
  },
  {
    "name": "Třemešné",
    "lat": "49.6253",
    "lon": "12.6957"
  },
  {
    "name": "Třebenice",
    "lat": "49.1629",
    "lon": "16.0162"
  },
  {
    "name": "Třebívlice",
    "lat": "50.4581",
    "lon": "13.8993"
  },
  {
    "name": "Třebušín",
    "lat": "50.5996",
    "lon": "14.2054"
  },
  {
    "name": "Třebechovice pod Orebem",
    "lat": "50.2008",
    "lon": "15.9931"
  },
  {
    "name": "Třesovice",
    "lat": "50.2651",
    "lon": "15.6890"
  },
  {
    "name": "Třemošnice",
    "lat": "49.8693",
    "lon": "15.5804"
  },
  {
    "name": "Třibřichy",
    "lat": "49.9653",
    "lon": "15.7392"
  },
  {
    "name": "Třebnouševes",
    "lat": "50.3392",
    "lon": "15.6517"
  },
  {
    "name": "Třtěnice",
    "lat": "50.3774",
    "lon": "15.4691"
  },
  {
    "name": "Třebosice",
    "lat": "49.9972",
    "lon": "15.7348"
  },
  {
    "name": "Třebešov",
    "lat": "50.1684",
    "lon": "16.2041"
  },
  {
    "name": "Třebařov",
    "lat": "49.8297",
    "lon": "16.7025"
  },
  {
    "name": "Třebihošť",
    "lat": "50.4333",
    "lon": "15.7097"
  },
  {
    "name": "Třebovice",
    "lat": "49.8593",
    "lon": "16.5020"
  },
  {
    "name": "Třešť",
    "lat": "49.2912",
    "lon": "15.4830"
  },
  {
    "name": "Třeštice",
    "lat": "49.2458",
    "lon": "15.4509"
  },
  {
    "name": "Třebětice",
    "lat": "49.0476",
    "lon": "15.5207"
  },
  {
    "name": "Třebelovice",
    "lat": "49.0218",
    "lon": "15.6666"
  },
  {
    "name": "Třebenice",
    "lat": "49.1629",
    "lon": "16.0162"
  },
  {
    "name": "Třebíč",
    "lat": "49.2152",
    "lon": "15.8816"
  },
  {
    "name": "Třesov",
    "lat": "49.1802",
    "lon": "16.0828"
  },
  {
    "name": "Tři Studně",
    "lat": "49.6128",
    "lon": "16.0365"
  },
  {
    "name": "Třemešná",
    "lat": "50.2052",
    "lon": "17.5749"
  },
  {
    "name": "Třanovice",
    "lat": "49.7127",
    "lon": "18.5292"
  },
  {
    "name": "Třinec",
    "lat": "49.6779",
    "lon": "18.6712"
  },
  {
    "name": "Třebom",
    "lat": "50.0463",
    "lon": "18.0257"
  },
  {
    "name": "Třeština",
    "lat": "49.7962",
    "lon": "16.9639"
  }
]