[
  {
    "name": "Unhošť",
    "lat": "50.0850",
    "lon": "14.1319"
  },
  {
    "name": "Unín",
    "lat": "49.3822",
    "lon": "16.4914"
  },
  {
    "name": "Unkovice",
    "lat": "49.0192",
    "lon": "16.6040"
  },
  {
    "name": "Unčín",
    "lat": "49.6077",
    "lon": "16.2457"
  },
  {
    "name": "Uničov",
    "lat": "49.7712",
    "lon": "17.1214"
  }
]