[
  {
    "name": "Vysoký Újezd",
    "lat": "49.9924",
    "lon": "14.2066"
  },
  {
    "name": "Vysoký Újezd",
    "lat": "49.9924",
    "lon": "14.2066"
  },
  {
    "name": "Vysoká",
    "lat": "49.6636",
    "lon": "16.8101"
  },
  {
    "name": "Vykáň",
    "lat": "50.1199",
    "lon": "14.8167"
  },
  {
    "name": "Vyšehořovice",
    "lat": "50.1178",
    "lon": "14.7737"
  },
  {
    "name": "Vyžlovka",
    "lat": "49.9840",
    "lon": "14.7892"
  },
  {
    "name": "Vysoká u Příbramě",
    "lat": "49.6338",
    "lon": "13.9479"
  },
  {
    "name": "Vysoký Chlumec",
    "lat": "49.6177",
    "lon": "14.3898"
  },
  {
    "name": "Vyšší Brod",
    "lat": "48.6154",
    "lon": "14.3120"
  },
  {
    "name": "Vydří",
    "lat": "49.0924",
    "lon": "14.9456"
  },
  {
    "name": "Vyklantice",
    "lat": "49.5545",
    "lon": "15.0404"
  },
  {
    "name": "Vyskytná",
    "lat": "49.4291",
    "lon": "15.3653"
  },
  {
    "name": "Vysoká Lhota",
    "lat": "49.4167",
    "lon": "15.0423"
  },
  {
    "name": "Vystrkov",
    "lat": "49.5197",
    "lon": "15.3488"
  },
  {
    "name": "Vysoká Pec",
    "lat": "50.5203",
    "lon": "13.4703"
  },
  {
    "name": "Vysoká Libyně",
    "lat": "50.0216",
    "lon": "13.4512"
  },
  {
    "name": "Vysoká Pec",
    "lat": "50.5203",
    "lon": "13.4703"
  },
  {
    "name": "Vysoká",
    "lat": "49.6636",
    "lon": "16.8101"
  },
  {
    "name": "Vysoká nad Labem",
    "lat": "50.1534",
    "lon": "15.8250"
  },
  {
    "name": "Vysoký Újezd",
    "lat": "49.9924",
    "lon": "14.2066"
  },
  {
    "name": "Vysočina",
    "lat": "49.7800",
    "lon": "15.8567"
  },
  {
    "name": "Vyžice",
    "lat": "49.9232",
    "lon": "15.6211"
  },
  {
    "name": "Vysoké Veselí",
    "lat": "50.3307",
    "lon": "15.4357"
  },
  {
    "name": "Vysoká Srbská",
    "lat": "50.4877",
    "lon": "16.2278"
  },
  {
    "name": "Vysokov",
    "lat": "50.4038",
    "lon": "16.1161"
  },
  {
    "name": "Vysoké Chvojno",
    "lat": "50.1090",
    "lon": "15.9735"
  },
  {
    "name": "Vyšehněvice",
    "lat": "50.1018",
    "lon": "15.5834"
  },
  {
    "name": "Vyskeř",
    "lat": "50.5293",
    "lon": "15.1579"
  },
  {
    "name": "Vysoké nad Jizerou",
    "lat": "50.6858",
    "lon": "15.4015"
  },
  {
    "name": "Vysoká",
    "lat": "49.6636",
    "lon": "16.8101"
  },
  {
    "name": "Vysoké Mýto",
    "lat": "49.9535",
    "lon": "16.1616"
  },
  {
    "name": "Vysočany",
    "lat": "48.9407",
    "lon": "15.6894"
  },
  {
    "name": "Vysoké Popovice",
    "lat": "49.1831",
    "lon": "16.2850"
  },
  {
    "name": "Vysoké Pole",
    "lat": "49.1775",
    "lon": "17.9374"
  },
  {
    "name": "Vyskytná nad Jihlavou",
    "lat": "49.4194",
    "lon": "15.5081"
  },
  {
    "name": "Vysoké Studnice",
    "lat": "49.3941",
    "lon": "15.7301"
  },
  {
    "name": "Vystrčenovice",
    "lat": "49.1512",
    "lon": "15.5297"
  },
  {
    "name": "Vyškovec",
    "lat": "48.9405",
    "lon": "17.8525"
  },
  {
    "name": "Vyškov",
    "lat": "49.2778",
    "lon": "16.9994"
  },
  {
    "name": "Vysočany",
    "lat": "48.9407",
    "lon": "15.6894"
  },
  {
    "name": "Vysoké",
    "lat": "49.5818",
    "lon": "15.9652"
  },
  {
    "name": "Vysoká",
    "lat": "49.6636",
    "lon": "16.8101"
  },
  {
    "name": "Vyšní Lhoty",
    "lat": "49.6358",
    "lon": "18.4569"
  },
  {
    "name": "Vyšehoří",
    "lat": "49.9336",
    "lon": "16.8784"
  }
]