[
  {
    "name": "Zubčice",
    "lat": 48.7945,
    "lon": 14.4072
  },
  {
    "name": "Zubrnice",
    "lat": 50.6495,
    "lon": 14.2204
  },
  {
    "name": "Zubří (Žďár nad Sázavou)",
    "lat": 49.5711,
    "lon": 16.1237
  },
  {
    "name": "Zubří (Vsetín)",
    "lat": 49.4661,
    "lon": 18.0923
  },
  {
    "name": "Zubří (Chrudim)",
    "lat": 49.7769,
    "lon": 15.8013
  }
]