[
  {
    "name": "Úholičky",
    "lat": "50.1614",
    "lon": "14.3352"
  },
  {
    "name": "Úhonice",
    "lat": "50.0434",
    "lon": "14.1860"
  },
  {
    "name": "Úherce",
    "lat": "49.7010",
    "lon": "13.2133"
  },
  {
    "name": "Úherce",
    "lat": "49.7010",
    "lon": "13.2133"
  },
  {
    "name": "Úhořilka",
    "lat": "49.5247",
    "lon": "15.5309"
  },
  {
    "name": "Úherčice",
    "lat": "49.9197",
    "lon": "15.6780"
  },
  {
    "name": "Úhřetice",
    "lat": "49.9789",
    "lon": "15.8669"
  },
  {
    "name": "Úhlejov",
    "lat": "50.4272",
    "lon": "15.6873"
  },
  {
    "name": "Úhřetická Lhota",
    "lat": "49.9889",
    "lon": "15.8733"
  }
]