[
  {
    "name": "Újezd",
    "lat": "49.5095",
    "lon": "15.8703"
  },
  {
    "name": "Újezdec",
    "lat": "49.2077",
    "lon": "14.7847"
  },
  {
    "name": "Újezdec",
    "lat": "49.2077",
    "lon": "14.7847"
  },
  {
    "name": "Újezdec",
    "lat": "49.2077",
    "lon": "14.7847"
  },
  {
    "name": "Újezd",
    "lat": "49.5095",
    "lon": "15.8703"
  },
  {
    "name": "Újezd u Plánice",
    "lat": "49.4177",
    "lon": "13.4579"
  },
  {
    "name": "Újezd nade Mží",
    "lat": "49.7892",
    "lon": "13.1957"
  },
  {
    "name": "Újezd u Svatého Kříže",
    "lat": "49.8597",
    "lon": "13.5695"
  },
  {
    "name": "Újezdeček",
    "lat": "50.6457",
    "lon": "13.7898"
  },
  {
    "name": "Újezd pod Troskami",
    "lat": "50.5067",
    "lon": "15.2624"
  },
  {
    "name": "Újezd u Přelouče",
    "lat": "50.1019",
    "lon": "15.4948"
  },
  {
    "name": "Újezd u Sezemic",
    "lat": "50.1141",
    "lon": "15.8556"
  },
  {
    "name": "Újezdec",
    "lat": "49.2077",
    "lon": "14.7847"
  },
  {
    "name": "Újezd u Chocně",
    "lat": "50.0269",
    "lon": "16.1646"
  },
  {
    "name": "Újezd u Boskovic",
    "lat": "49.4639",
    "lon": "16.6542"
  },
  {
    "name": "Újezd u Černé Hory",
    "lat": "49.3687",
    "lon": "16.5401"
  },
  {
    "name": "Újezd u Brna",
    "lat": "49.1043",
    "lon": "16.7574"
  },
  {
    "name": "Újezd u Rosic",
    "lat": "49.2224",
    "lon": "16.2536"
  },
  {
    "name": "Újezd u Tišnova",
    "lat": "49.3655",
    "lon": "16.3245"
  },
  {
    "name": "Újezd",
    "lat": "49.5095",
    "lon": "15.8703"
  },
  {
    "name": "Újezdec",
    "lat": "49.2077",
    "lon": "14.7847"
  },
  {
    "name": "Újezd",
    "lat": "49.5095",
    "lon": "15.8703"
  },
  {
    "name": "Újezd",
    "lat": "49.5095",
    "lon": "15.8703"
  },
  {
    "name": "Újezd",
    "lat": "49.5095",
    "lon": "15.8703"
  }
]