[
  {
    "name": "Úsilné",
    "lat": "49.0126",
    "lon": "14.5058"
  },
  {
    "name": "Ústrašín",
    "lat": "49.3827",
    "lon": "15.1677"
  },
  {
    "name": "Ústrašice",
    "lat": "49.3403",
    "lon": "14.6845"
  },
  {
    "name": "Úsilov",
    "lat": "49.3971",
    "lon": "13.1275"
  },
  {
    "name": "Ústí nad Labem",
    "lat": "50.6603",
    "lon": "14.0381"
  },
  {
    "name": "Úsobí",
    "lat": "49.5142",
    "lon": "15.5025"
  },
  {
    "name": "Ústí nad Orlicí",
    "lat": "49.9738",
    "lon": "16.3942"
  },
  {
    "name": "Úsobrno",
    "lat": "49.5889",
    "lon": "16.7629"
  },
  {
    "name": "Ústup",
    "lat": "49.5647",
    "lon": "16.4634"
  },
  {
    "name": "Úsuší",
    "lat": "49.3347",
    "lon": "16.3560"
  },
  {
    "name": "Ústí",
    "lat": "49.5168",
    "lon": "17.7664"
  },
  {
    "name": "Ústín",
    "lat": "49.5865",
    "lon": "17.1584"
  },
  {
    "name": "Ústí",
    "lat": "49.5168",
    "lon": "17.7664"
  },
  {
    "name": "Úsov",
    "lat": "49.7983",
    "lon": "17.0105"
  },
  {
    "name": "Ústí",
    "lat": "49.5168",
    "lon": "17.7664"
  }
]