[
  {
    "name": "Číčovice",
    "lat": 50.157,
    "lon": 14.2493
  },
  {
    "name": "Čím",
    "lat": 49.7789,
    "lon": 14.3783
  },
  {
    "name": "Čížkrajice",
    "lat": 48.8065,
    "lon": 14.6361
  },
  {
    "name": "Čížová",
    "lat": 49.3568,
    "lon": 14.0929
  },
  {
    "name": "Číčenice",
    "lat": 49.1533,
    "lon": 14.2306
  },
  {
    "name": "Číhaň",
    "lat": 49.3424,
    "lon": 13.4258
  },
  {
    "name": "Čímice",
    "lat": 49.2536,
    "lon": 13.6059
  },
  {
    "name": "Čížkovice",
    "lat": 50.4842,
    "lon": 14.0284
  },
  {
    "name": "Číhošť",
    "lat": 49.7417,
    "lon": 15.3352
  },
  {
    "name": "Čížov",
    "lat": 49.3519,
    "lon": 15.5878
  },
  {
    "name": "Číhalín",
    "lat": 49.2684,
    "lon": 15.8121
  },
  {
    "name": "Číchov",
    "lat": 49.2837,
    "lon": 15.7616
  },
  {
    "name": "Číměř (Jindřichův Hradec)",
    "lat": 49.0606,
    "lon": 15.0737
  },
  {
    "name": "Číměř (Třebíč)",
    "lat": 49.2008,
    "lon": 15.9976
  },
  {
    "name": "Čížkov (Pelhřimov)",
    "lat": 49.4404,
    "lon": 15.1185
  },
  {
    "name": "Čížkov (Plzeň-jih)",
    "lat": 49.5404,
    "lon": 13.6834
  }
]