[
  {
    "name": "Žabonosy",
    "lat": 50.0355,
    "lon": 15.0271
  },
  {
    "name": "Žabovřesky",
    "lat": 49.0037,
    "lon": 14.3351
  },
  {
    "name": "Žandov",
    "lat": 50.7137,
    "lon": 14.3962
  },
  {
    "name": "Žabovřesky nad Ohří",
    "lat": 50.4132,
    "lon": 14.091
  },
  {
    "name": "Žalhostice",
    "lat": 50.5231,
    "lon": 14.0914
  },
  {
    "name": "Žalany",
    "lat": 50.59,
    "lon": 13.9063
  },
  {
    "name": "Žacléř",
    "lat": 50.6586,
    "lon": 15.908
  },
  {
    "name": "Žamberk",
    "lat": 50.0871,
    "lon": 16.4651
  },
  {
    "name": "Žampach",
    "lat": 50.038,
    "lon": 16.4272
  },
  {
    "name": "Žabčice",
    "lat": 49.0116,
    "lon": 16.6026
  },
  {
    "name": "Žatčany",
    "lat": 49.0879,
    "lon": 16.7337
  },
  {
    "name": "Žarošice",
    "lat": 49.0406,
    "lon": 16.9671
  },
  {
    "name": "Žalkovice",
    "lat": 49.3719,
    "lon": 17.4359
  },
  {
    "name": "Žabeň",
    "lat": 49.7088,
    "lon": 18.3042
  },
  {
    "name": "Žatec (Louny)",
    "lat": 50.3274,
    "lon": 13.546
  },
  {
    "name": "Žatec (Jihlava)",
    "lat": 49.2063,
    "lon": 15.5089
  }
]