[
  {
    "name": "Žebrák",
    "lat": "49.8757",
    "lon": "13.8967"
  },
  {
    "name": "Železná",
    "lat": "50.0097",
    "lon": "14.0909"
  },
  {
    "name": "Želenice",
    "lat": "50.2104",
    "lon": "14.1645"
  },
  {
    "name": "Žehuň",
    "lat": "50.1356",
    "lon": "15.2906"
  },
  {
    "name": "Žehušice",
    "lat": "49.9699",
    "lon": "15.4067"
  },
  {
    "name": "Želízy",
    "lat": "50.4237",
    "lon": "14.4647"
  },
  {
    "name": "Žerčice",
    "lat": "50.3742",
    "lon": "15.0359"
  },
  {
    "name": "Želiv",
    "lat": "49.5300",
    "lon": "15.2213"
  },
  {
    "name": "Želnava",
    "lat": "48.8122",
    "lon": "13.9646"
  },
  {
    "name": "Žernovice",
    "lat": "49.0284",
    "lon": "14.0393"
  },
  {
    "name": "Želeč",
    "lat": "49.3183",
    "lon": "14.6466"
  },
  {
    "name": "Železná Ruda",
    "lat": "49.1374",
    "lon": "13.2350"
  },
  {
    "name": "Železný Brod",
    "lat": "50.6431",
    "lon": "15.2540"
  },
  {
    "name": "Želkovice",
    "lat": "50.4642",
    "lon": "13.8767"
  },
  {
    "name": "Žerotín",
    "lat": "49.7237",
    "lon": "17.1896"
  },
  {
    "name": "Želenice",
    "lat": "50.2104",
    "lon": "14.1645"
  },
  {
    "name": "Železnice",
    "lat": "50.4731",
    "lon": "15.3847"
  },
  {
    "name": "Žeretice",
    "lat": "50.3535",
    "lon": "15.4114"
  },
  {
    "name": "Žernov",
    "lat": "50.5567",
    "lon": "15.2696"
  },
  {
    "name": "Žernov",
    "lat": "50.5567",
    "lon": "15.2696"
  },
  {
    "name": "Želivsko",
    "lat": "49.6409",
    "lon": "16.5697"
  },
  {
    "name": "Žernovník",
    "lat": "49.4072",
    "lon": "16.5455"
  },
  {
    "name": "Žerůtky",
    "lat": "48.9059",
    "lon": "15.9631"
  },
  {
    "name": "Želešice",
    "lat": "49.1169",
    "lon": "16.5814"
  },
  {
    "name": "Železné",
    "lat": "49.3596",
    "lon": "16.4504"
  },
  {
    "name": "Želechovice nad Dřevnicí",
    "lat": "49.2179",
    "lon": "17.7461"
  },
  {
    "name": "Želetice",
    "lat": "48.9363",
    "lon": "16.1828"
  },
  {
    "name": "Žeravice",
    "lat": "49.0229",
    "lon": "17.2373"
  },
  {
    "name": "Žeraviny",
    "lat": "48.9082",
    "lon": "17.3915"
  },
  {
    "name": "Žeranovice",
    "lat": "49.2915",
    "lon": "17.6044"
  },
  {
    "name": "Želeč",
    "lat": "49.3183",
    "lon": "14.6466"
  },
  {
    "name": "Želetava",
    "lat": "49.1419",
    "lon": "15.6730"
  },
  {
    "name": "Želetice",
    "lat": "48.9363",
    "lon": "16.1828"
  },
  {
    "name": "Žerotice",
    "lat": "48.9267",
    "lon": "16.1687"
  },
  {
    "name": "Žerůtky",
    "lat": "48.9059",
    "lon": "15.9631"
  },
  {
    "name": "Žermanice",
    "lat": "49.7367",
    "lon": "18.4415"
  },
  {
    "name": "Ženklava",
    "lat": "49.5637",
    "lon": "18.1072"
  },
  {
    "name": "Želechovice",
    "lat": "49.7541",
    "lon": "17.1439"
  },
  {
    "name": "Žerotín",
    "lat": "49.7237",
    "lon": "17.1896"
  },
  {
    "name": "Želatovice",
    "lat": "49.4441",
    "lon": "17.5065"
  }
]