[
  {
    "name": "Žebrák",
    "lat": 49.8757,
    "lon": 13.8967
  },
  {
    "name": "Železná",
    "lat": 50.0097,
    "lon": 14.0909
  },
  {
    "name": "Žehuň",
    "lat": 50.1356,
    "lon": 15.2906
  },
  {
    "name": "Žehušice",
    "lat": 49.9699,
    "lon": 15.4067
  },
  {
    "name": "Želízy",
    "lat": 50.4237,
    "lon": 14.4647
  },
  {
    "name": "Žerčice",
    "lat": 50.3742,
    "lon": 15.0359
  },
  {
    "name": "Želiv",
    "lat": 49.53,
    "lon": 15.2213
  },
  {
    "name": "Želnava",
    "lat": 48.8122,
    "lon": 13.9646
  },
  {
    "name": "Žernovice",
    "lat": 49.0284,
    "lon": 14.0393
  },
  {
    "name": "Železná Ruda",
    "lat": 49.1374,
    "lon": 13.235
  },
  {
    "name": "Železný Brod",
    "lat": 50.6431,
    "lon": 15.254
  },
  {
    "name": "Želkovice",
    "lat": 50.4642,
    "lon": 13.8767
  },
  {
    "name": "Železnice",
    "lat": 50.4731,
    "lon": 15.3847
  },
  {
    "name": "Žeretice",
    "lat": 50.3535,
    "lon": 15.4114
  },
  {
    "name": "Želivsko",
    "lat": 49.6409,
    "lon": 16.5697
  },
  {
    "name": "Žernovník",
    "lat": 49.4072,
    "lon": 16.5455
  },
  {
    "name": "Želešice",
    "lat": 49.1169,
    "lon": 16.5814
  },
  {
    "name": "Železné",
    "lat": 49.3596,
    "lon": 16.4504
  },
  {
    "name": "Želechovice nad Dřevnicí",
    "lat": 49.2179,
    "lon": 17.7461
  },
  {
    "name": "Žeravice",
    "lat": 49.0229,
    "lon": 17.2373
  },
  {
    "name": "Žeraviny",
    "lat": 48.9082,
    "lon": 17.3915
  },
  {
    "name": "Žeranovice",
    "lat": 49.2915,
    "lon": 17.6044
  },
  {
    "name": "Želetava",
    "lat": 49.1419,
    "lon": 15.673
  },
  {
    "name": "Žerotice",
    "lat": 48.9267,
    "lon": 16.1687
  },
  {
    "name": "Žermanice",
    "lat": 49.7367,
    "lon": 18.4415
  },
  {
    "name": "Ženklava",
    "lat": 49.5637,
    "lon": 18.1072
  },
  {
    "name": "Želechovice",
    "lat": 49.7541,
    "lon": 17.1439
  },
  {
    "name": "Želatovice",
    "lat": 49.4441,
    "lon": 17.5065
  },
  {
    "name": "Želenice (Kladno)",
    "lat": 50.2104,
    "lon": 14.1645
  },
  {
    "name": "Želenice (Most)",
    "lat": 50.5273,
    "lon": 13.7264
  },
  {
    "name": "Želenice (Děčín)",
    "lat": 50.7631,
    "lon": 14.1894
  },
  {
    "name": "Želeč (Tábor)",
    "lat": 49.3183,
    "lon": 14.6466
  },
  {
    "name": "Želeč (Prostějov)",
    "lat": 49.346,
    "lon": 17.0978
  },
  {
    "name": "Želeč (Louny)",
    "lat": 50.2385,
    "lon": 13.5574
  },
  {
    "name": "Želeč (Jablonec nad Nisou)",
    "lat": 50.658,
    "lon": 15.209
  },
  {
    "name": "Žerotín (Olomouc)",
    "lat": 49.7237,
    "lon": 17.1896
  },
  {
    "name": "Žerotín (Louny)",
    "lat": 50.2862,
    "lon": 13.9121
  },
  {
    "name": "Žerotín (Hodonín)",
    "lat": 48.8624,
    "lon": 17.3267
  },
  {
    "name": "Žernov (Semily)",
    "lat": 50.5567,
    "lon": 15.2696
  },
  {
    "name": "Žernov (Náchod)",
    "lat": 50.4304,
    "lon": 16.0574
  },
  {
    "name": "Žernov (Pardubice)",
    "lat": 50.0928,
    "lon": 15.9387
  },
  {
    "name": "Žernov (Česká Lípa)",
    "lat": 50.8114,
    "lon": 14.6334
  },
  {
    "name": "Žerůtky (Znojmo)",
    "lat": 48.9059,
    "lon": 15.9631
  },
  {
    "name": "Žerůtky (Blansko)",
    "lat": 49.4404,
    "lon": 16.5367
  },
  {
    "name": "Želetice (Znojmo)",
    "lat": 48.9363,
    "lon": 16.1828
  },
  {
    "name": "Želetice (Hodonín)",
    "lat": 49.0152,
    "lon": 17.0093
  },
  {
    "name": "Želetice (Litoměřice)",
    "lat": 50.5265,
    "lon": 14.1352
  }
]