[
  {
    "name": "Žleby",
    "lat": 49.8896,
    "lon": 15.4885
  },
  {
    "name": "Žlutice",
    "lat": 50.0919,
    "lon": 13.163
  },
  {
    "name": "Žlebské Chvalovice",
    "lat": 49.8927,
    "lon": 15.5667
  },
  {
    "name": "Žlunice",
    "lat": 50.3022,
    "lon": 15.3824
  },
  {
    "name": "Žlutava",
    "lat": 49.1998,
    "lon": 17.4903
  }
]